City,Country,Latitude,Longitude,Temperature,Humidity,Cloudiness,Winds
namibe,namibe,-15.19,12.15,72.87,100,0,9.89
egvekinot,egvekinot,66.32,-179.17,-24.2,69,8,11.12
kirakira,kirakira,-10.46,161.92,81.64,100,68,4.52
hobart,hobart,-42.88,147.33,57.2,87,0,5.82
ca mau,ca mau,9.18,105.15,75.61,95,0,8.99
butaritari,butaritari,3.07,172.79,82.36,100,68,15.82
khatanga,khatanga,71.98,102.47,-36.08,70,32,5.41
praya,praya,-8.71,116.27,77.0,94,64,2.24
port alfred,port alfred,-33.59,26.89,68.64,89,24,7.31
busselton,busselton,-33.64,115.35,59.55,100,0,18.05
beyneu,beyneu,45.32,55.19,29.49,100,88,2.95
aitape,aitape,-3.15,142.36,80.65,92,56,10.78
muncie,muncie,40.19,-85.39,29.35,78,90,12.75
barrow,barrow,-38.31,-60.23,69.72,92,88,11.68
clarksburg,clarksburg,39.24,-77.28,30.16,86,90,3.36
rikitea,rikitea,-23.12,-134.97,79.62,99,76,11.56
terrassa,terrassa,41.57,2.01,48.31,70,0,2.24
nhulunbuy,nhulunbuy,-12.18,136.78,78.8,94,92,6.87
viedma,viedma,-40.81,-62.99,76.02,36,36,15.59
deputatskiy,deputatskiy,69.3,139.9,-29.15,45,48,3.18
saldanha,saldanha,41.42,-6.55,26.11,84,0,2.73
minot,minot,48.23,-101.3,26.62,71,1,6.93
norman wells,norman wells,65.28,-126.83,-20.21,68,75,9.17
chokurdakh,chokurdakh,70.62,147.9,-26.81,42,24,1.72
cape town,cape town,-33.93,18.42,62.6,77,40,6.93
punta arenas,punta arenas,-53.16,-70.91,52.0,81,75,21.92
onda,onda,39.96,-0.26,39.4,86,0,1.12
juneau,juneau,58.3,-134.42,34.99,95,90,3.4
russell,russell,-33.01,-68.8,75.2,57,40,11.41
vaini,vaini,15.34,74.49,58.78,79,0,2.62
dikson,dikson,73.51,80.55,1.72,99,80,30.24
victoria,victoria,5.28,115.24,81.5,88,75,3.36
mataura,mataura,-46.19,168.86,55.27,88,92,10.22
dingle,dingle,11.0,122.67,75.07,84,48,14.25
esperance,esperance,10.24,-61.45,86.0,51,40,9.17
urengoy,urengoy,65.96,78.37,5.32,75,80,18.95
wanning,wanning,48.64,13.53,39.2,93,75,18.34
demyanovo,demyanovo,60.35,47.08,22.06,82,88,10.0
hofn,hofn,64.25,-15.21,26.79,100,80,7.87
new norfolk,new norfolk,-42.78,147.06,57.2,87,0,5.82
hilo,hilo,19.71,-155.08,75.92,64,90,5.82
noumea,noumea,-22.28,166.46,77.0,73,0,3.36
abu dhabi,abu dhabi,24.47,54.37,68.0,77,0,2.62
jamestown,jamestown,-33.21,138.6,62.02,79,0,2.95
lompoc,lompoc,34.64,-120.46,57.6,77,75,14.99
pisco,pisco,-13.71,-76.2,71.6,30,0,12.75
gweta,gweta,-20.21,25.26,74.26,80,76,2.62
qaanaaq,qaanaaq,77.48,-69.36,-25.55,100,0,9.78
albany,albany,42.65,-73.75,20.66,44,20,9.17
juba,juba,57.82,26.93,30.2,92,80,6.93
castro,castro,-42.48,-73.76,66.2,55,0,8.05
vityazevo,vityazevo,44.99,37.26,32.0,100,12,6.71
nouadhibou,nouadhibou,20.93,-17.03,69.8,30,0,4.7
ushuaia,ushuaia,-54.81,-68.31,51.8,62,75,40.26
aklavik,aklavik,68.22,-135.01,-23.81,67,40,16.11
los llanos de aridane,los llanos de aridane,28.66,-17.92,69.8,15,0,4.7
talcahuano,talcahuano,-36.72,-73.12,75.2,50,0,6.93
macusani,macusani,-14.07,-70.43,53.97,100,92,2.62
puerto ayora,puerto ayora,-0.74,-90.35,82.4,69,75,16.11
copiapo,copiapo,-27.37,-70.33,71.6,53,0,13.87
east london,east london,-33.02,27.91,72.15,100,0,9.22
tiksi,tiksi,71.64,128.87,-38.11,0,0,2.17
serov,serov,59.61,60.57,24.76,81,68,6.64
georgetown,georgetown,6.8,-58.16,85.19,66,40,11.41
iisaku,iisaku,59.1,27.31,27.73,98,88,10.78
laguna,laguna,27.52,-110.01,78.8,24,5,6.93
labuhan,labuhan,-2.54,115.51,70.35,99,80,0.83
mehran,mehran,33.12,46.17,46.4,87,90,9.17
avarua,avarua,-21.21,-159.78,84.2,74,40,5.82
tasiilaq,tasiilaq,65.61,-37.64,19.4,85,80,2.24
sao joao da barra,sao joao da barra,-21.64,-41.05,84.2,54,0,16.11
panguna,panguna,-6.32,155.48,76.47,93,100,4.41
vao,vao,59.1,26.19,27.01,98,92,8.77
ribeira grande,ribeira grande,38.52,-28.7,60.8,72,75,16.11
clyde river,clyde river,70.47,-68.59,-36.41,65,20,3.36
souillac,souillac,45.6,-0.6,48.99,93,90,10.29
estevan,estevan,49.14,-102.99,25.05,79,1,10.29
vostok,vostok,46.45,135.83,-11.47,53,8,2.06
nara,nara,34.68,135.8,38.55,86,20,3.36
hithadhoo,hithadhoo,-0.6,73.08,82.36,100,92,6.76
sambava,sambava,-14.27,50.17,78.49,100,64,6.76
zhuhai,zhuhai,40.71,112.04,6.8,65,0,4.47
gat,gat,14.69,-16.54,75.2,53,12,10.29
zhuanghe,zhuanghe,39.7,122.97,22.24,100,0,3.96
jacareacanga,jacareacanga,-6.22,-57.76,80.83,77,68,2.62
tura,tura,25.52,90.21,48.79,77,0,2.17
saint george,saint george,39.45,22.34,30.9,72,0,5.82
kyzyl-suu,kyzyl-suu,42.34,78.0,6.67,100,0,3.18
iracoubo,iracoubo,5.48,-53.21,78.31,80,92,4.18
hermanus,hermanus,-34.42,19.24,57.3,95,12,3.29
shimoda,shimoda,34.7,138.93,47.53,100,0,17.49
manakara,manakara,-22.14,48.01,78.09,97,88,8.88
ucluelet,ucluelet,48.94,-125.55,48.2,93,20,6.93
kahului,kahului,20.89,-156.47,76.15,52,1,6.93
christchurch,christchurch,-43.53,172.64,51.8,93,92,18.34
kapaa,kapaa,22.08,-159.32,78.08,68,75,3.36
yellowknife,yellowknife,62.45,-114.38,-27.41,74,20,3.36
torbay,torbay,47.66,-52.73,26.6,68,40,25.28
hobyo,hobyo,5.35,48.53,74.98,85,80,15.26
state college,state college,40.79,-77.86,25.95,73,90,5.82
kodiak,kodiak,39.95,-94.76,30.69,96,40,8.05
byron bay,byron bay,-28.65,153.62,65.23,93,40,9.22
vila velha,vila velha,-3.71,-38.6,82.4,78,75,8.05
bathsheba,bathsheba,13.22,-59.52,82.4,58,20,17.22
lorengau,lorengau,-2.02,147.27,84.16,96,88,16.04
salalah,salalah,17.01,54.1,75.2,69,40,6.93
provideniya,provideniya,64.42,-173.23,-0.41,77,48,29.08
sabang,sabang,13.72,123.58,76.24,93,44,10.0
bluff,bluff,-23.58,149.07,72.15,69,0,10.56
yarovoye,yarovoye,52.92,78.56,1.72,70,0,10.89
upernavik,upernavik,72.79,-56.15,-11.42,100,44,7.43
solnechnyy,solnechnyy,50.72,136.64,-20.56,59,20,2.39
otradnoye,otradnoye,59.77,30.8,26.6,92,75,6.71
kijang,kijang,35.24,129.21,32.0,76,0,6.93
puerto ayacucho,puerto ayacucho,5.66,-67.63,93.2,44,40,6.93
turukhansk,turukhansk,65.8,87.96,-11.11,74,48,17.05
mahebourg,mahebourg,-20.41,57.7,80.6,74,75,11.41
cagdianao,cagdianao,9.92,125.67,76.69,100,100,14.14
cockburn town,cockburn town,21.46,-71.14,79.17,98,8,16.26
padang,padang,-0.92,100.36,77.77,100,56,6.87
kenora,kenora,49.76,-94.48,23.79,85,90,12.75
agadez,agadez,16.97,7.99,59.86,31,0,8.43
comodoro rivadavia,comodoro rivadavia,-45.87,-67.48,73.4,28,0,17.22
hatfield,hatfield,51.76,-0.23,50.92,66,40,21.92
sobolevo,sobolevo,54.43,31.9,29.67,95,92,14.92
hasaki,hasaki,35.73,140.83,30.11,100,20,8.05
ahipara,ahipara,-35.17,173.16,68.55,88,88,18.84
aswan,aswan,24.09,32.9,51.94,62,80,5.97
mnogovershinnyy,mnogovershinnyy,53.94,139.92,-17.54,50,0,2.17
guerrero negro,guerrero negro,27.97,-114.04,64.72,77,44,3.29
atuona,atuona,-9.8,-139.03,81.1,100,24,17.05
luderitz,luderitz,-26.65,15.16,63.28,89,20,12.91
ponta do sol,ponta do sol,-20.63,-46.0,81.64,70,20,2.62
nola,nola,3.52,16.05,69.4,96,12,1.95
kargasok,kargasok,59.06,80.87,15.31,76,76,9.22
tezu,tezu,27.93,96.16,48.75,52,0,1.95
ambulu,ambulu,-8.35,113.61,76.15,100,92,3.29
fare,fare,-16.7,-151.02,82.72,100,88,15.48
bredasdorp,bredasdorp,-34.53,20.04,66.2,72,32,8.05
pochutla,pochutla,15.74,-96.47,86.74,55,20,3.96
lyantonde,lyantonde,-0.41,31.15,64.14,92,24,3.4
port hardy,port hardy,50.7,-127.42,46.4,93,75,4.18
mildura,mildura,-34.18,142.16,68.0,49,0,5.82
lerwick,lerwick,60.15,-1.15,34.7,55,40,19.46
longyearbyen,longyearbyen,78.22,15.63,14.0,66,20,17.22
saint-joseph,saint-joseph,43.56,6.97,48.04,93,0,4.7
carutapera,carutapera,-1.2,-46.02,80.56,85,88,7.2
puerto leguizamo,puerto leguizamo,-0.19,-74.78,85.42,69,12,2.62
fort nelson,fort nelson,58.81,-122.69,-7.61,76,90,3.4
chuy,chuy,-33.69,-53.46,71.29,100,92,13.24
tuatapere,tuatapere,-46.13,167.69,53.07,100,88,8.77
anadyr,anadyr,64.73,177.51,-22.01,67,20,8.95
kalmunai,kalmunai,7.42,81.82,72.87,100,100,4.85
poum,poum,41.28,20.71,17.6,85,40,4.7
nome,nome,30.04,-94.42,55.49,45,1,11.41
sitka,sitka,37.17,-99.65,35.47,88,32,4.63
bethel,bethel,60.79,-161.76,15.94,91,90,17.22
hervey bay,hervey bay,-25.3,152.85,69.8,88,40,8.05
tutoia,tutoia,-2.76,-42.27,75.2,78,75,7.54
neringa,neringa,55.69,21.18,37.4,100,90,9.17
lebu,lebu,8.96,38.73,57.2,26,0,6.93
faanui,faanui,-16.48,-151.75,82.45,100,80,15.48
bosaso,bosaso,11.28,49.18,75.07,100,0,7.2
bandar-e lengeh,bandar-e lengeh,26.56,54.88,70.44,100,88,10.22
mar del plata,mar del plata,-46.43,-67.52,79.62,24,0,5.97
hatta,hatta,24.13,79.6,54.37,75,0,5.19
zyryanka,zyryanka,65.73,150.89,-21.59,64,68,5.86
tommot,tommot,58.97,126.27,-11.78,72,64,2.73
acapulco,acapulco,16.86,-99.88,84.2,70,40,6.93
seoul,seoul,37.57,126.98,20.91,79,40,3.36
huarmey,huarmey,-10.07,-78.15,76.74,61,24,5.41
pali,pali,25.77,73.33,54.01,62,0,8.77
college,college,64.86,-147.8,-11.37,75,1,2.95
nianzishan,nianzishan,47.51,122.88,-5.71,56,0,3.4
buraydah,buraydah,26.33,43.97,66.2,59,75,5.82
shimorskoye,shimorskoye,55.33,42.04,19.72,87,80,10.45
kruisfontein,kruisfontein,-34.0,24.73,67.06,89,92,10.22
tuktoyaktuk,tuktoyaktuk,69.44,-133.03,-25.61,67,40,17.22
smithers,smithers,54.78,-127.17,33.8,100,90,2.51
port elizabeth,port elizabeth,39.31,-74.98,30.67,84,90,14.99
chapais,chapais,49.78,-74.86,-0.41,77,90,5.82
atbasar,atbasar,51.81,68.36,18.01,84,56,15.37
yerbogachen,yerbogachen,61.28,108.01,-23.44,68,24,7.99
nikolayevsk-na-amure,nikolayevsk-na-amure,53.14,140.72,-8.81,66,8,4.18
cherskiy,cherskiy,68.75,161.3,-29.24,48,20,2.62
gorontalo,gorontalo,0.54,123.06,72.01,97,20,2.17
mudon,mudon,16.26,97.73,73.5,95,24,2.62
pampierstad,pampierstad,-27.78,24.69,73.32,22,0,9.78
dunkwa,dunkwa,5.97,-1.78,81.73,64,36,7.65
oksfjord,oksfjord,70.24,22.35,22.33,100,40,2.62
hamilton,hamilton,43.26,-79.87,21.58,85,90,17.22
kizukuri,kizukuri,40.81,140.39,17.56,100,20,1.39
bondoukou,bondoukou,8.04,-2.8,79.8,33,0,6.76
moose factory,moose factory,51.26,-80.61,14.0,72,75,16.11
maamba,maamba,-17.36,27.22,73.59,82,8,6.08
fairbanks,fairbanks,64.84,-147.72,-13.29,75,1,2.95
port lincoln,port lincoln,-34.72,135.86,65.53,96,0,10.0
vanimo,vanimo,-2.67,141.3,82.14,100,88,16.49
saint-philippe,saint-philippe,45.36,-73.48,11.48,66,90,2.95
thompson,thompson,55.74,-97.86,17.6,78,75,9.17
pasighat,pasighat,28.06,95.33,50.14,48,0,2.62
fortuna,fortuna,38.18,-1.13,48.18,71,0,4.7
saint-augustin,saint-augustin,44.83,-0.61,51.01,100,75,10.29
oudtshoorn,oudtshoorn,-33.59,22.2,57.88,91,0,2.62
borovskoy,borovskoy,53.8,64.15,23.55,90,88,14.25
bulgan,bulgan,48.81,103.53,-12.5,52,0,7.31
susa,susa,5.45,-73.81,60.09,64,68,1.72
griffith,griffith,-34.29,146.06,80.13,45,0,5.82
foz,foz,43.57,-7.26,52.8,100,92,5.08
kerouane,kerouane,12.23,-12.34,74.08,33,8,5.41
cabo san lucas,cabo san lucas,22.89,-109.91,78.08,53,5,8.05
north bend,north bend,43.41,-124.22,55.94,59,1,3.36
husavik,husavik,50.56,-96.99,18.6,97,88,4.63
oriximina,oriximina,-1.77,-55.87,83.22,76,20,2.95
lavrentiya,lavrentiya,65.58,-170.99,-4.22,100,68,30.8
sarai,sarai,25.78,85.28,53.6,81,40,3.06
sovetskiy,sovetskiy,56.76,48.47,12.61,89,80,10.78
cayenne,cayenne,4.94,-52.33,84.2,66,20,10.29
batemans bay,batemans bay,-35.71,150.18,67.51,100,80,2.17
san marcos,san marcos,14.97,-91.79,89.37,38,20,6.93
paamiut,paamiut,61.99,-49.67,31.06,94,24,8.66
lasa,lasa,34.92,32.53,50.95,87,75,5.82
bodden town,bodden town,19.28,-81.25,80.6,94,40,6.93
shar,shar,7.3,8.73,74.08,68,12,1.72
katsuura,katsuura,33.93,134.5,35.6,93,20,10.29
general pico,general pico,-35.66,-63.75,79.12,75,0,8.55
chernyshevskiy,chernyshevskiy,63.01,112.47,-25.24,38,24,4.97
irtyshskiy,irtyshskiy,58.33,68.13,22.06,84,80,11.45
zeerust,zeerust,-25.54,26.07,80.6,26,8,6.93
carnarvon,carnarvon,-30.97,22.13,64.5,38,0,8.77
dowa,dowa,-13.66,33.93,67.24,100,88,3.4
ilebo,ilebo,-4.33,20.59,75.16,89,36,3.74
marystown,marystown,47.17,-55.16,29.17,96,44,20.07
emerald,emerald,-23.53,148.16,71.6,83,0,6.93
porecatu,porecatu,-22.75,-51.38,90.19,62,40,3.36
ayr,ayr,55.46,-4.63,45.41,81,40,21.92
kuytun,kuytun,54.34,101.51,-17.72,50,0,2.51
zagan,zagan,51.62,15.31,44.6,93,75,12.75
lundamo,lundamo,63.15,10.29,30.33,100,90,19.46
komsomolskiy,komsomolskiy,67.55,63.78,3.7,79,88,12.8
myronivka,myronivka,49.66,30.98,28.09,89,80,14.14
la reforma,la reforma,14.8,-91.82,89.33,38,20,6.93
bonthe,bonthe,7.53,-12.5,83.89,67,0,6.42
constitucion,constitucion,23.99,-104.67,69.8,13,5,16.11
soe,soe,57.91,26.05,30.2,92,92,6.93
ericeira,ericeira,38.96,-9.42,46.11,76,0,8.05
gimli,gimli,50.63,-96.99,18.6,97,88,4.63
talnakh,talnakh,69.49,88.39,-9.17,66,64,24.65
nioro,nioro,13.79,-15.05,77.95,32,8,7.65
la rioja,la rioja,-29.41,-66.86,75.12,74,92,4.74
sorsk,sorsk,54.0,90.25,-21.01,56,0,2.73
yar-sale,yar-sale,66.83,70.83,9.19,84,68,14.58
horsham,horsham,-36.71,142.2,65.22,72,0,3.74
klyuchi,klyuchi,52.25,79.17,2.35,68,0,11.23
garden city,garden city,40.73,-73.63,32.02,42,1,14.99
kailua,kailua,21.39,-157.74,76.53,81,90,3.36
povenets,povenets,62.85,34.83,17.34,85,64,6.08
havelock,havelock,34.88,-76.9,48.24,100,90,9.17
ostrovnoy,ostrovnoy,68.05,39.51,18.64,92,76,8.77
geraldton,geraldton,49.72,-86.95,24.8,79,90,12.75
torrington,torrington,42.06,-104.18,38.91,49,1,3.62
codrington,codrington,-28.95,153.24,63.25,93,40,3.51
honningsvag,honningsvag,70.98,25.97,25.61,92,75,4.7
leningradskiy,leningradskiy,69.38,178.42,-17.32,100,24,8.43
garissa,garissa,-0.46,39.64,82.72,46,24,6.42
zhangjiakou,zhangjiakou,40.77,114.88,3.12,66,0,2.73
ontario,ontario,34.07,-117.65,59.45,47,1,5.82
kumo,kumo,10.05,11.21,71.25,29,8,9.66
arraial do cabo,arraial do cabo,-22.97,-42.02,85.19,69,20,23.04
kapit,kapit,2.02,112.94,69.9,98,92,2.28
bloemhof,bloemhof,-27.65,25.61,74.35,46,0,10.67
kuusamo,kuusamo,65.96,29.19,-2.21,84,75,1.12
san patricio,san patricio,-26.98,-56.83,85.51,83,56,2.51
fez,fez,34.03,-5.02,48.51,79,0,9.17
bat khela,bat khela,34.62,71.97,18.73,69,0,1.95
diego de almagro,diego de almagro,-26.39,-70.05,75.34,41,0,4.74
kaeo,kaeo,-35.1,173.78,71.2,69,12,14.36
tres arroyos,tres arroyos,-38.38,-60.28,69.72,92,88,11.68
troitsko-pechorsk,troitsko-pechorsk,62.71,56.19,15.22,79,80,7.65
achit,achit,56.8,57.9,16.57,84,68,11.23
skjervoy,skjervoy,70.03,20.97,21.07,100,40,3.06
campbell river,campbell river,50.02,-125.24,46.81,81,75,4.7
rio gallegos,rio gallegos,-51.62,-69.22,60.8,36,0,24.16
kapuskasing,kapuskasing,49.42,-82.43,14.0,72,75,8.05
hambantota,hambantota,6.12,81.12,78.76,100,80,16.26
camopi,camopi,3.17,-52.33,78.49,84,76,2.39
vernon,vernon,50.27,-119.27,33.8,80,90,2.24
la crosse,la crosse,43.8,-91.24,30.97,60,90,4.7
grand bank,grand bank,47.1,-55.77,26.6,86,75,20.8
dwarka,dwarka,28.58,77.04,55.4,76,0,5.82
saint-francois,saint-francois,46.42,3.91,48.2,87,90,12.75
te anau,te anau,-45.41,167.72,49.92,84,48,3.06
kingman,kingman,35.19,-114.05,53.8,45,1,11.41
chicama,chicama,-7.84,-79.15,75.2,78,0,14.99
surgut,surgut,61.25,73.4,23.0,85,75,13.42
saint-pierre,saint-pierre,48.95,4.24,47.55,87,90,20.8
kununurra,kununurra,-15.77,128.74,77.0,83,20,1.12
nikolskoye,nikolskoye,59.7,30.79,26.6,92,75,6.71
baracoa,baracoa,20.35,-74.5,77.41,100,92,12.35
grootfontein,grootfontein,-19.56,18.1,75.34,25,64,7.87
dunedin,dunedin,-45.87,170.5,53.34,85,0,14.58
kedougou,kedougou,12.56,-12.19,78.13,29,8,8.66
palmer,palmer,-34.85,139.16,64.4,59,0,6.93
pacific grove,pacific grove,36.62,-121.92,55.85,59,1,5.82
temyasovo,temyasovo,52.99,58.1,26.6,92,90,11.18
santa fe,santa fe,-31.62,-60.7,73.14,100,80,4.41
cherkasskoye,cherkasskoye,52.43,47.21,13.87,85,76,4.63
airai,airai,-8.93,125.41,69.54,89,48,1.5
borogontsy,borogontsy,62.67,131.17,-49.85,0,20,2.62
hermiston,hermiston,45.84,-119.29,33.53,92,90,6.93
timizart,timizart,36.8,4.25,28.45,94,0,1.95
iqaluit,iqaluit,63.75,-68.52,-14.81,75,90,14.7
santa cruz del sur,santa cruz del sur,20.71,-78.0,74.98,92,88,6.31
wabag,wabag,-5.48,143.7,48.61,92,0,2.62
san ramon,san ramon,12.92,-85.84,69.8,83,75,9.17
senno,senno,57.76,27.95,30.2,100,92,11.18
saskylakh,saskylakh,71.97,114.09,-57.68,0,0,7.2
ancud,ancud,-41.87,-73.83,64.4,59,0,8.05
port-cartier,port-cartier,50.03,-66.88,14.0,47,20,8.05
casino,casino,-28.86,153.05,66.87,88,80,3.51
arenzano,arenzano,44.4,8.68,50.0,76,75,4.7
dabhol,dabhol,17.6,73.17,70.03,99,0,5.41
alice springs,alice springs,-23.7,133.88,78.8,27,8,4.7
kavieng,kavieng,-2.57,150.8,83.44,100,48,12.24
rozhyshche,rozhyshche,50.92,25.27,33.94,95,88,18.39
kaitangata,kaitangata,-46.28,169.85,55.54,84,56,14.7
tilichiki,tilichiki,60.47,166.1,-28.66,45,0,3.51
stepnyak,stepnyak,52.83,70.79,17.65,85,80,17.49
caravelas,caravelas,-17.73,-39.27,80.2,100,0,13.02
zambezi,zambezi,-13.55,23.12,66.88,97,92,7.87
mayor pablo lagerenza,mayor pablo lagerenza,-19.93,-60.77,93.12,43,76,16.71
varzea grande,varzea grande,-29.42,-50.86,85.86,69,75,6.93
takoradi,takoradi,4.89,-1.75,82.95,100,20,8.66
rauma,rauma,61.13,21.5,30.2,92,88,8.05
campana,campana,8.72,-79.89,88.48,55,40,14.99
santa rosa,santa rosa,-36.62,-64.29,78.0,63,100,3.74
konakovo,konakovo,56.71,36.78,24.27,92,76,12.91
jagraon,jagraon,30.8,75.48,42.45,89,0,8.32
tandur,tandur,19.18,79.43,58.06,84,0,2.62
falmouth,falmouth,50.16,-5.07,50.0,93,75,27.51
maceio,maceio,-9.67,-35.74,84.2,66,40,11.41
nileshwar,nileshwar,12.25,75.1,80.34,100,0,12.01
grants,grants,35.15,-107.85,33.8,83,90,11.41
cam ranh,cam ranh,11.92,109.15,75.2,73,20,4.7
aykhal,aykhal,65.95,111.51,-49.49,0,0,2.73
marawi,marawi,8.0,124.29,68.5,97,64,2.39
nicoya,nicoya,10.15,-85.45,89.6,43,0,21.92
evensk,evensk,61.92,159.24,0.64,100,44,8.21
srednekolymsk,srednekolymsk,67.46,153.71,-24.29,37,56,5.3
kachug,kachug,53.96,105.89,-19.61,53,8,4.63
harstad,harstad,68.8,16.53,17.1,85,0,8.05
datong,datong,40.09,113.3,1.0,54,0,2.73
islamabad,islamabad,33.69,73.06,42.8,87,0,3.36
wajima,wajima,37.4,136.9,31.74,100,0,5.08
palana,palana,59.08,159.95,-1.84,69,48,3.74
robertsport,robertsport,6.75,-11.37,84.57,96,0,11.23
touros,touros,-5.2,-35.46,86.0,66,40,16.11
agadir,agadir,30.42,-9.58,57.2,71,0,8.05
richards bay,richards bay,-28.77,32.06,74.89,81,12,9.78
enid,enid,36.4,-97.88,33.85,82,90,9.17
avera,avera,33.19,-82.53,44.51,82,90,3.36
lodwar,lodwar,3.12,35.6,69.58,46,0,5.64
helena,helena,46.59,-112.04,24.08,77,1,3.36
kahramanmaras,kahramanmaras,37.58,36.93,39.2,80,75,1.12
haridwar,haridwar,29.97,78.17,41.05,91,0,2.73
darab,darab,28.75,54.55,35.11,72,88,1.16
faya,faya,18.39,42.45,58.08,44,0,8.05
prince rupert,prince rupert,54.32,-130.32,48.2,81,90,12.75
rodrigues alves,rodrigues alves,-7.74,-72.65,86.0,70,75,2.51
zalantun,zalantun,48.0,122.72,-8.9,48,32,2.51
suileng,suileng,47.25,127.08,5.5,83,64,3.29
yumen,yumen,40.29,97.04,5.64,70,76,7.31
kishanpur,kishanpur,26.21,86.66,49.6,86,0,6.08
ilulissat,ilulissat,69.22,-51.1,-2.21,64,0,2.24
antalaha,antalaha,-14.9,50.28,75.97,100,92,3.29
bucerias,bucerias,20.76,-105.33,80.6,69,5,9.17
amapa,amapa,15.09,-87.97,78.8,78,75,2.73
innisfail,innisfail,52.02,-113.95,23.0,73,75,3.36
mehamn,mehamn,71.03,27.85,26.38,92,75,4.7
deniliquin,deniliquin,-35.53,144.96,74.94,82,0,4.41
changji,changji,32.07,116.17,30.39,89,64,4.74
adrar,adrar,27.87,-0.29,53.6,30,0,8.05
boyabat,boyabat,41.47,34.77,30.61,97,76,2.28
pavilosta,pavilosta,56.89,21.19,36.39,100,92,10.29
vardo,vardo,39.62,-77.74,29.66,78,90,8.05
lata,lata,30.78,78.62,23.82,98,0,2.62
binga,binga,-17.62,27.34,79.75,81,8,10.0
along,along,28.17,94.8,46.77,51,0,2.39
hami,hami,42.84,93.51,8.11,63,36,7.99
mabaruma,mabaruma,8.2,-59.78,79.66,75,92,7.2
bilibino,bilibino,68.06,166.44,-38.78,0,12,2.39
maumere,maumere,-8.63,122.22,81.24,100,44,3.18
grand gaube,grand gaube,-20.01,57.66,80.6,74,75,11.41
parambu,parambu,-6.21,-40.7,72.55,95,36,3.06
manaus,manaus,-3.13,-59.98,84.2,66,75,2.24
guarapari,guarapari,-20.67,-40.5,86.0,66,20,12.75
pimenteiras,pimenteiras,-6.24,-41.42,76.6,89,20,2.73
nanortalik,nanortalik,60.14,-45.24,26.07,100,64,14.81
luebo,luebo,-5.35,21.42,71.97,97,24,2.39
kenai,kenai,60.55,-151.26,24.48,81,90,10.29
severo-kurilsk,severo-kurilsk,50.68,156.12,26.52,100,88,3.74
nuuk,nuuk,64.17,-51.74,15.8,78,20,9.17
ondjiva,ondjiva,-17.07,15.73,79.93,20,48,12.68
jumla,jumla,29.28,82.18,11.53,89,8,2.62
mecca,mecca,21.43,39.83,68.77,100,88,3.06
lulea,lulea,65.58,22.15,26.6,92,90,9.17
portmore,portmore,17.97,-76.87,82.4,58,75,14.99
maravilha,maravilha,-26.76,-53.17,84.2,58,20,2.06
lagoa,lagoa,37.14,-8.45,51.8,71,0,6.93
padilla,padilla,3.23,-76.31,84.2,48,40,4.7
samoded,samoded,63.61,40.52,21.75,79,44,6.42
savalou,savalou,7.93,1.98,82.27,40,0,6.87
kutum,kutum,14.2,24.66,55.77,36,8,7.54
santo domingo,santo domingo,18.48,-69.94,84.27,69,40,11.41
novikovo,novikovo,45.05,34.56,27.24,100,68,3.62
zholymbet,zholymbet,51.74,71.71,16.62,85,76,14.7
kedgwick,kedgwick,47.65,-67.35,8.2,58,0,5.75
negombo,negombo,7.21,79.83,77.59,99,0,15.26
sur,sur,22.57,59.53,68.77,100,0,7.43
bambous virieux,bambous virieux,-20.34,57.76,80.6,74,75,11.41
gunnedah,gunnedah,-30.98,150.25,68.0,64,12,1.12
thinadhoo,thinadhoo,0.53,72.93,81.91,100,76,9.66
nelson bay,nelson bay,-32.72,152.14,69.8,100,90,5.82
ixtapa,ixtapa,20.71,-105.21,80.6,69,5,9.17
presidencia roque saenz pena,presidencia roque saenz pena,-26.79,-60.44,83.4,96,36,4.18
san carlos,san carlos,9.66,-68.59,88.3,45,92,5.41
oga,oga,8.18,5.65,80.7,52,80,3.18
abu samrah,abu samrah,35.3,37.18,42.09,95,88,4.18
broken hill,broken hill,-31.97,141.45,77.0,42,8,6.93
knysna,knysna,-34.04,23.05,67.15,100,76,8.21
asmara,asmara,15.34,38.93,50.05,73,0,1.83
shubarshi,shubarshi,48.59,57.19,26.47,91,88,3.29
devonport,devonport,-41.18,146.36,57.3,80,8,6.87
morondava,morondava,-20.3,44.28,76.2,100,48,4.29
nagorsk,nagorsk,59.32,50.8,13.74,84,68,14.03
methven,methven,-43.63,171.65,50.59,100,92,15.7
malmyzh,malmyzh,56.52,50.68,11.4,81,80,9.1
san rafael,san rafael,-34.61,-68.33,71.7,39,76,6.98
ola,ola,59.58,151.3,9.64,100,76,7.43
szczecinek,szczecinek,53.71,16.69,40.29,97,92,18.61
plouzane,plouzane,48.38,-4.62,50.0,87,90,10.29
shenjiamen,shenjiamen,29.96,122.3,49.69,96,92,9.66
udgir,udgir,18.39,77.12,68.5,68,68,7.09
kamaishi,kamaishi,39.28,141.86,17.38,100,0,4.18
rincon,rincon,32.3,-81.24,50.77,89,90,10.29
ayan,ayan,40.67,33.6,30.34,97,92,2.62
kajaani,kajaani,64.22,27.73,12.2,92,90,4.7
pangai,pangai,-19.8,-174.35,82.4,74,20,9.17
buchanan,buchanan,5.88,-10.05,82.4,65,0,3.36
banda aceh,banda aceh,5.56,95.32,73.32,100,76,2.73
ylivieska,ylivieska,64.07,24.53,20.22,88,76,6.64
shellbrook,shellbrook,53.22,-106.39,23.0,92,90,3.62
klaksvik,klaksvik,62.23,-6.59,32.0,100,20,23.04
saint-georges,saint-georges,46.12,-70.67,6.72,70,0,3.74
manjeshwar,manjeshwar,12.72,74.89,75.2,83,0,4.74
cururupu,cururupu,-1.82,-44.87,81.82,77,64,6.76
urazovka,urazovka,55.4,45.62,14.19,83,76,9.22
dongsheng,dongsheng,29.72,112.52,40.47,95,92,3.4
lhokseumawe,lhokseumawe,5.18,97.15,80.25,100,24,2.51
vagur,vagur,61.47,-6.81,37.95,100,88,22.53
dolores,dolores,-33.53,-58.22,71.92,99,92,5.19
namatanai,namatanai,-3.66,152.44,79.48,100,20,11.79
saint anthony,saint anthony,43.97,-111.68,17.62,77,1,4.18
benguela,benguela,-12.58,13.4,74.85,100,8,3.96
malanville,malanville,11.86,3.39,71.97,29,0,7.99
olinda,olinda,-2.03,-79.75,84.2,66,75,4.7
bikin,bikin,46.82,134.25,-4.85,54,36,2.39
zhangye,zhangye,38.94,100.46,4.29,87,20,3.96
shingu,shingu,33.72,135.99,45.64,100,0,8.99
sayaxche,sayaxche,16.52,-90.17,87.13,43,0,4.29
bonfim,bonfim,3.36,-59.84,92.89,32,20,17.16
el tigre,el tigre,8.89,-64.25,91.45,30,0,13.13
salinopolis,salinopolis,-0.61,-47.36,80.83,98,56,9.89
alajuela,alajuela,10.02,-84.22,78.76,42,0,18.34
roma,roma,41.89,12.48,42.1,81,0,5.82
necochea,necochea,-38.55,-58.74,67.69,93,88,13.58
alghero,alghero,40.56,8.32,55.4,76,75,10.29
sharya,sharya,58.37,45.52,20.04,85,88,6.76
fort myers beach,fort myers beach,26.45,-81.95,77.58,54,1,11.41
walvis bay,walvis bay,-22.95,14.51,69.8,77,68,10.29
belaya gora,belaya gora,68.54,146.19,-22.76,68,68,9.78
blankenberge,blankenberge,51.31,3.13,49.41,87,75,23.04
tabuk,tabuk,17.41,121.44,61.62,99,80,0.72
pyrzyce,pyrzyce,53.15,14.89,42.8,87,75,16.11
pevek,pevek,69.7,170.27,-29.96,99,0,3.4
nakambala,nakambala,-15.83,27.78,67.65,95,48,6.42
suluq,suluq,31.67,20.25,53.2,67,76,10.0
gurlan,gurlan,41.84,60.39,33.8,74,0,9.17
cabedelo,cabedelo,-6.97,-34.84,82.4,69,20,13.87
kurumkan,kurumkan,54.33,110.32,-31.54,47,0,1.95
vila do maio,vila do maio,15.13,-23.22,71.6,68,40,11.41
osvaldo cruz,osvaldo cruz,-21.8,-50.88,93.2,38,40,3.36
oktyabrskiy,oktyabrskiy,55.61,37.97,26.6,86,75,6.71
oistins,oistins,13.07,-59.53,80.6,57,20,14.99
edd,edd,13.93,41.69,58.51,75,0,2.39
port blair,port blair,11.67,92.75,82.95,99,36,10.22
pangnirtung,pangnirtung,66.15,-65.72,-20.21,75,90,4.41
severodvinsk,severodvinsk,64.56,39.82,21.2,92,90,6.71
eenhana,eenhana,-17.48,16.34,82.4,22,0,3.36
vilhena,vilhena,-12.74,-60.15,77.0,83,40,2.24
boende,boende,-0.28,20.88,71.83,100,76,2.73
kaduqli,kaduqli,11.01,29.72,72.42,58,8,6.31
melfi,melfi,41.0,15.66,33.8,88,90,13.87
cortez,cortez,37.35,-108.58,35.06,81,90,3.36
balkanabat,balkanabat,39.51,54.36,33.58,72,56,1.95
vyazemskiy,vyazemskiy,47.53,134.76,-6.79,59,64,2.39
isangel,isangel,-19.55,169.27,78.94,100,44,5.64
baykit,baykit,61.68,96.39,-28.39,43,68,2.73
vila franca do campo,vila franca do campo,37.72,-25.43,59.0,77,40,6.93
lichuan,lichuan,30.3,108.94,34.35,95,92,2.39
nabire,nabire,-3.36,135.5,66.52,96,8,2.06
brawley,brawley,32.98,-115.53,59.99,44,1,5.82
svodin,svodin,47.91,18.5,41.0,99,75,11.41
sisimiut,sisimiut,66.94,-53.67,-28.7,100,8,1.61
meulaboh,meulaboh,4.14,96.13,77.05,100,20,3.18
haines junction,haines junction,60.75,-137.51,-11.78,67,20,0.94
chenghai,chenghai,23.46,116.77,62.6,82,75,4.47
rio grande,rio grande,-32.03,-52.1,80.6,83,40,6.93
kattivakkam,kattivakkam,13.22,80.32,73.4,78,20,9.44
minna,minna,9.62,6.55,76.02,70,0,3.4
ust-tsilma,ust-tsilma,65.44,52.15,17.25,77,76,7.65
margate,margate,-43.03,147.26,57.2,87,0,5.82
gidole,gidole,5.65,37.37,58.15,30,0,4.18
sao filipe,sao filipe,14.9,-24.5,72.6,96,20,12.68
kurri kurri,kurri kurri,-32.82,151.48,71.6,100,20,5.82
caraballeda,caraballeda,10.61,-66.85,78.8,74,20,4.7
horta,horta,41.43,2.16,48.24,75,0,3.36
kambove,kambove,-10.88,26.6,65.22,94,100,6.2
ambilobe,ambilobe,-13.19,49.05,70.03,92,8,2.73
altamont,altamont,49.4,-98.5,23.0,100,80,6.93
kavaratti,kavaratti,10.57,72.64,81.64,100,0,13.02
bozeman,bozeman,45.68,-111.04,34.81,58,1,2.28
caldwell,caldwell,43.67,-116.69,32.54,88,90,3.74
leua,leua,-11.65,20.45,65.53,96,76,3.96
kavkazskaya,kavkazskaya,45.45,40.67,25.39,97,64,3.06
wahlstedt,wahlstedt,53.95,10.21,44.6,81,75,24.16
najran,najran,17.54,44.22,64.4,31,0,3.62
beringovskiy,beringovskiy,63.05,179.32,-10.79,90,24,30.13
jalu,jalu,29.03,21.55,48.12,74,32,6.2
alofi,alofi,-19.06,-169.92,82.4,78,75,5.82
xuddur,xuddur,4.12,43.89,69.13,55,0,8.21
boguchany,boguchany,58.38,97.46,-21.68,63,0,2.73
udachnyy,udachnyy,66.42,112.4,-49.54,0,0,2.39
mishkino,mishkino,56.22,46.62,14.0,85,20,15.66
black river,black river,18.03,-77.85,82.4,74,20,16.11
muros,muros,42.77,-9.06,44.6,93,20,9.17
coquimbo,coquimbo,-29.95,-71.34,69.8,56,0,13.87
goure,goure,13.98,10.27,64.9,37,0,11.68
ankpa,ankpa,7.37,7.63,76.06,53,12,5.53
auki,auki,12.18,6.51,68.86,27,0,8.99
naze,naze,5.43,7.07,78.09,79,24,7.43
houston,houston,29.76,-95.37,55.87,41,1,8.05
vouliagmeni,vouliagmeni,37.81,23.78,39.27,75,20,1.12
flin flon,flin flon,54.77,-101.88,19.4,92,90,6.93
half moon bay,half moon bay,37.46,-122.43,57.74,71,75,4.7
bull savanna,bull savanna,17.89,-77.59,79.21,59,80,4.18
narrabri,narrabri,-30.33,149.78,75.2,53,0,10.29
wattegama,wattegama,7.35,80.68,67.51,97,24,2.84
zhigansk,zhigansk,66.77,123.37,-21.23,63,44,3.62
moerai,moerai,-22.43,-151.33,76.24,100,92,25.77
slantsy,slantsy,59.12,28.09,27.42,90,80,7.54
mayo,mayo,63.59,-135.9,-4.01,76,90,3.36
dudinka,dudinka,69.41,86.18,-10.57,72,44,28.23
okato,okato,-39.19,173.88,62.11,100,36,9.1
bonnyville,bonnyville,54.27,-110.74,26.6,100,90,8.05
mikhaylovsk,mikhaylovsk,56.44,59.12,21.12,76,88,7.76
salta,salta,-24.79,-65.41,80.96,61,75,8.05
waddan,waddan,29.16,16.14,31.87,70,0,3.62
katete,katete,-0.78,29.75,60.9,79,32,2.84
lewisporte,lewisporte,49.25,-55.06,23.0,67,75,12.75
marihatag,marihatag,8.8,126.3,75.57,100,92,7.99
ust-kan,ust-kan,50.93,84.77,-14.44,56,0,1.95
yarega,yarega,63.43,53.58,16.48,79,76,8.55
paptalaya,paptalaya,15.5,-84.32,77.0,83,40,8.05
petropavlovsk-kamchatskiy,petropavlovsk-kamchatskiy,53.05,158.65,3.2,84,0,8.95
nemuro,nemuro,43.32,145.57,26.52,100,8,11.79
gallup,gallup,35.53,-108.74,36.46,75,90,10.29
rovaniemi,rovaniemi,66.5,25.72,6.8,92,90,5.82
awbari,awbari,26.59,12.77,30.75,77,0,3.96
keti bandar,keti bandar,24.14,67.45,65.26,100,0,24.54
san gabriel,san gabriel,34.1,-118.11,59.4,48,1,2.62
sembakung,sembakung,3.82,117.25,74.4,97,44,2.39
billings,billings,45.79,-108.5,42.08,46,1,16.11
salym,salym,60.06,71.48,21.3,83,76,11.56
